,City,Lat,Lng,Max Temp,Humidity,Cloudiness,Wind Speed,Country,Date
0,Port Elizabeth,-33.92,25.57,60.8,100,81,4.7,ZA,1605733606
1,Tilichiki,60.47,166.1,2.48,93,100,4.36,RU,1605733606
2,Saint-Joseph,-21.37,55.62,66.02,69,75,17.22,RE,1605733606
3,Faanui,-16.48,-151.75,79.72,78,100,13.91,PF,1605733607
4,Avarua,-21.21,-159.78,78.8,83,100,11.41,CK,1605733590
5,Avera,33.19,-82.53,57.4,26,1,6.93,US,1605733607
6,Geraldton,-28.77,114.6,64.4,82,90,9.17,AU,1605733607
7,Along,28.17,94.77,53.02,80,55,2.1,IN,1605733607
8,Genhe,50.78,121.52,10.0,85,69,2.82,CN,1605733987
9,Cheyenne,41.14,-104.82,64.54,17,1,13.87,US,1605733504
10,Hastings,50.86,0.57,50.9,76,100,18.34,GB,1605733381
11,Whitehaven,54.55,-3.58,46.99,84,82,11.01,GB,1605733609
12,Hasaki,35.73,140.83,53.42,100,75,4.7,JP,1605733987
13,Thompson,55.74,-97.86,15.8,85,90,8.05,CA,1605733610
14,Yellowknife,62.46,-114.35,5.0,84,75,12.75,CA,1605733481
15,Butaritari,3.07,172.79,81.63,75,36,18.03,KI,1605733611
16,Marfino,55.7,37.38,27.54,92,90,13.42,RU,1605733611
17,Clarence Town,-32.58,151.78,70.03,72,0,8.05,AU,1605733611
18,Lorengau,-2.02,147.27,81.84,71,100,2.44,PG,1605733611
19,Hermanus,-34.42,19.23,55.99,90,5,12.21,ZA,1605733612
20,Bubaque,11.28,-15.83,83.37,74,61,13.24,GW,1605733612
21,Svetogorsk,61.11,28.86,48.92,93,90,13.87,RU,1605733612
22,Rikitea,-23.12,-134.97,74.57,75,100,5.61,PF,1605733613
23,Iqaluit,63.75,-68.51,21.2,85,90,25.28,CA,1605733613
24,Jalu,29.03,21.55,58.71,62,2,3.31,LY,1605733613
25,Punta Arenas,-53.15,-70.92,64.4,55,40,27.51,CL,1605733613
26,Havøysund,71.0,24.66,37.4,75,75,27.51,NO,1605733614
27,Albany,42.6,-73.97,26.58,51,0,1.99,US,1605733515
28,Atuona,-9.8,-139.03,78.39,75,1,17.05,PF,1605733614
29,Vaini,-21.2,-175.2,77.0,83,40,11.41,TO,1605733614
30,Hobart,-42.88,147.33,60.28,63,75,9.17,AU,1605733395
31,Lavrentiya,65.58,-171.0,34.52,95,100,17.25,RU,1605733615
32,Oranjestad,12.52,-70.03,84.2,79,40,13.87,AW,1605733566
33,Kualakapuas,-3.01,114.39,73.4,100,75,1.12,ID,1605733616
34,Busselton,-33.65,115.33,45.37,97,13,4.12,AU,1605733398
35,Jamestown,42.1,-79.24,32.52,80,90,5.82,US,1605733399
36,Mana,5.66,-53.78,78.89,84,83,8.79,GF,1605733617
37,Longyearbyen,78.22,15.64,17.6,61,75,8.05,SJ,1605733617
38,Touros,-5.2,-35.46,82.4,74,40,13.87,BR,1605733617
39,Nyurba,63.28,118.33,-2.88,90,93,9.62,RU,1605733617
40,Arraial do Cabo,-22.97,-42.03,71.6,100,90,6.93,BR,1605733461
41,Port Hedland,-20.32,118.57,77.0,94,40,6.93,AU,1605733618
42,New Norfolk,-42.78,147.06,59.5,52,54,1.66,AU,1605733618
43,Ushuaia,-54.8,-68.3,53.6,71,75,19.46,AR,1605733619
44,Hilo,19.73,-155.09,75.4,78,75,4.7,US,1605733390
45,Myitkyina,25.38,97.4,61.41,84,1,2.64,MM,1605733619
46,Mataura,-46.19,168.86,55.0,67,45,4.0,NZ,1605733619
47,Yatou,37.15,122.38,53.91,86,100,15.46,CN,1605733620
48,Kapaa,22.08,-159.32,71.6,100,90,9.17,US,1605733620
49,Qaanaaq,77.48,-69.36,27.95,89,100,14.14,GL,1605733620
50,Felipe Carrillo Puerto,19.58,-88.05,76.37,95,98,7.2,MX,1605733620
51,Pevek,69.7,170.31,16.14,95,100,2.8,RU,1605733621
52,Ilulissat,69.22,-51.1,30.2,46,75,27.51,GL,1605733621
53,Port Macquarie,-31.43,152.92,70.0,66,5,5.99,AU,1605733559
54,Jieshi,22.81,115.83,77.0,91,38,5.03,CN,1605733621
55,Riachão,-7.36,-46.62,82.92,63,76,2.44,BR,1605733622
56,Lagoa,39.05,-27.98,59.22,55,41,7.61,PT,1605733622
57,Pangnirtung,66.15,-65.71,33.8,86,90,5.82,CA,1605733622
58,Cape Town,-33.93,18.42,63.99,63,20,26.4,ZA,1605733558
59,San Jose,37.34,-121.89,64.42,68,75,5.82,US,1605733432
60,Kumul,42.8,93.45,28.8,86,100,3.76,CN,1605733623
61,Saint-Philippe,-21.36,55.77,64.53,69,75,17.22,RE,1605733624
62,Mandera,3.94,41.87,83.19,52,39,9.19,KE,1605733624
63,Puerto Ayora,-0.74,-90.35,73.22,69,20,13.87,EC,1605733624
64,Port Alfred,-33.59,26.89,64.42,84,81,12.17,ZA,1605733624
65,Carnarvon,-24.87,113.63,68.0,94,82,14.99,AU,1605733624
66,Ariquemes,-9.91,-63.04,76.15,93,75,6.78,BR,1605733625
67,Yangi Marg`ilon,40.43,71.72,24.8,85,90,11.41,UZ,1605733625
68,Ribeira Grande,38.52,-28.7,55.4,66,40,9.17,PT,1605733625
69,Kirksville,40.19,-92.58,62.83,29,1,18.34,US,1605733531
70,Sinjār,36.32,41.88,54.64,56,91,2.53,IQ,1605733490
71,Lagunas,-5.23,-75.68,91.33,51,69,3.58,PE,1605733626
72,Tabas,33.6,56.92,51.8,37,0,4.7,IR,1605733626
73,Visby,57.64,18.3,51.91,87,100,25.28,SE,1605733626
74,Saskylakh,71.92,114.08,12.96,92,100,15.61,RU,1605733627
75,Bredasdorp,-34.53,20.04,57.2,87,16,6.93,ZA,1605733627
76,Kosh-Agach,50.0,88.67,-21.8,76,0,1.34,RU,1605733627
77,Mar del Plata,-38.0,-57.56,64.4,59,0,13.87,AR,1605733627
78,Quang Ngai,15.12,108.8,73.45,91,25,2.55,VN,1605733628
79,Lamar,33.67,-95.58,72.46,26,1,13.87,US,1605733628
80,George Town,5.41,100.34,77.0,94,20,2.24,MY,1605733628
81,Diok’nisi,41.63,42.39,48.2,93,90,2.24,GE,1605733628
82,Castro,-24.79,-50.01,58.28,97,100,7.67,BR,1605733535
83,Saint Paul Harbor,57.79,-152.41,39.2,44,1,6.93,US,1605733629
84,Katsuura,35.13,140.3,60.8,82,75,5.82,JP,1605733629
85,Clyde River,70.47,-68.59,17.6,92,90,14.99,CA,1605733629
86,Tokmak,47.25,35.71,32.07,94,88,9.66,UA,1605733629
87,Santa Vitória,-18.84,-50.12,88.12,47,100,4.99,BR,1605733630
88,Burdur,37.72,30.29,48.2,66,40,9.17,TR,1605733630
89,San Patricio,28.02,-97.52,77.63,54,40,18.34,US,1605733630
90,Port Lincoln,-34.73,135.87,71.78,50,0,19.62,AU,1605733630
91,Muros,42.78,-9.06,61.0,94,80,3.0,ES,1605733630
92,Hirara,24.8,125.28,77.79,88,0,15.1,JP,1605733631
93,Richards Bay,-28.78,32.04,72.84,91,73,12.48,ZA,1605733631
94,Batagay-Alyta,67.8,130.41,1.09,86,100,1.83,RU,1605733631
95,Sisimiut,66.94,-53.67,31.39,89,100,15.95,GL,1605733631
96,Bagdarin,54.43,113.6,11.93,93,100,0.74,RU,1605733632
97,Bluff,-46.6,168.33,55.0,67,87,4.0,NZ,1605733632
98,Bambous Virieux,-20.34,57.76,70.38,83,75,11.41,MU,1605733632
99,Krutikha,53.96,81.21,8.28,94,95,6.69,RU,1605733633
100,Vila Franca do Campo,37.72,-25.43,57.2,62,20,8.05,PT,1605733633
101,Dikson,73.51,80.55,33.82,98,100,18.28,RU,1605733633
102,Sivas Province,39.79,37.0,28.4,100,40,6.93,TR,1605733633
103,Doka,13.52,35.77,78.57,31,0,10.54,SD,1605733634
104,Mastic Beach,40.77,-72.85,33.75,53,0,4.0,US,1605733342
105,Codrington,-38.27,141.97,64.9,54,100,13.85,AU,1605733634
106,Hohoe,7.15,0.47,78.01,71,100,2.66,GH,1605733622
107,Nabire,-3.37,135.48,75.58,86,12,2.91,ID,1605733635
108,Casalgrande,44.58,10.74,44.44,87,0,2.84,IT,1605733635
109,Kutum,14.2,24.67,65.73,28,0,9.73,SD,1605733635
110,Liwale,-9.77,37.93,72.07,88,19,3.83,TZ,1605733453
111,Inta,66.03,60.17,16.72,93,69,27.47,RU,1605733635
112,Tsiroanomandidy,-18.77,46.03,69.82,84,54,1.99,MG,1605733636
113,Bitung,1.45,125.18,75.2,100,40,2.24,ID,1605733636
114,São Filipe,14.9,-24.5,81.32,56,41,11.92,CV,1605733636
115,Souillac,-20.52,57.52,71.6,83,75,11.41,MU,1605733637
116,Kruisfontein,-34.0,24.73,61.0,95,79,0.89,ZA,1605733637
117,Santa Elena,-2.23,-80.85,73.4,78,40,8.05,EC,1605733637
118,Shache,38.42,77.24,22.71,90,1,2.39,CN,1605733637
119,Lebu,-37.62,-73.65,56.91,76,4,8.7,CL,1605733638
120,Teya,60.38,92.63,6.85,92,100,4.23,RU,1605733638
121,Poum,-20.23,164.02,76.48,73,0,14.47,NC,1605733638
122,Zaozyornoye,45.16,33.28,41.4,82,1,16.13,UA,1605733638
123,Gazojak,41.19,61.4,16.45,86,0,9.78,TM,1605733638
124,Shimanovsk,52.0,127.7,7.21,88,1,4.68,RU,1605733639
125,Tabou,4.42,-7.35,79.63,80,47,6.38,CI,1605733639
126,Fort Nelson,58.81,-122.7,12.2,78,90,6.93,CA,1605733639
127,Chokurdakh,70.63,147.92,-6.21,92,94,10.27,RU,1605733639
128,Chuguyevka,44.17,133.86,33.24,93,100,3.71,RU,1605733640
129,Lüderitz,-26.65,15.16,64.4,68,0,19.46,NA,1605733640
130,Waingapu,-9.66,120.26,80.4,81,77,6.44,ID,1605733641
131,Juegang,32.32,121.19,61.72,88,99,1.99,CN,1605733622
132,Imeni Babushkina,59.76,43.13,26.47,95,100,15.23,RU,1605733641
133,Buraidah,26.33,43.98,64.4,68,0,9.17,SA,1605733641
134,Yagodnoye,62.55,149.67,-16.65,85,100,6.31,RU,1605733642
135,Barrow,71.29,-156.79,8.6,78,1,6.93,US,1605733642
136,Kirkland Lake,48.14,-80.04,17.6,67,45,4.65,CA,1605733642
137,Gurupi,-11.73,-49.07,81.01,69,100,6.87,BR,1605733643
138,East London,-33.02,27.91,67.08,85,100,17.96,ZA,1605733643
139,Porbandar,21.64,69.61,72.7,43,100,10.11,IN,1605733643
140,Penalva,-3.29,-45.17,78.51,89,100,4.7,BR,1605733540
141,Kon Tum,14.35,108.0,66.96,93,7,1.74,VN,1605733644
142,Vardø,70.37,31.11,37.4,86,75,23.04,NO,1605733645
143,São Gabriel da Cachoeira,-0.13,-67.09,82.67,87,100,1.36,BR,1605733645
144,Margate,51.38,1.39,50.72,62,100,3.0,GB,1605733645
145,Mahébourg,-20.41,57.7,71.6,83,75,11.41,MU,1605733645
146,Norman Wells,65.28,-126.83,8.6,78,75,9.17,CA,1605733646
147,Cockburn Town,21.46,-71.14,82.4,74,40,11.41,TC,1605733646
148,Saldanha,-33.01,17.94,60.8,72,0,8.05,ZA,1605733646
149,Xapuri,-10.65,-68.5,93.2,52,75,10.29,BR,1605733646
150,Huarmey,-10.07,-78.15,69.26,67,26,10.16,PE,1605733647
151,Palembang,-2.92,104.75,75.81,92,98,0.38,ID,1605733647
152,Viedma,-40.81,-63.0,78.01,34,0,4.0,AR,1605733648
153,Sigli,5.38,95.96,78.67,77,100,4.18,ID,1605733648
154,Wiarton,44.74,-81.13,32.58,85,75,5.82,CA,1605733648
155,Nanortalik,60.14,-45.24,34.63,85,100,14.65,GL,1605733648
156,San Rafael del Sur,11.85,-86.44,78.8,88,75,4.7,NI,1605733649
157,Tiksi,71.69,128.87,-5.69,87,97,26.89,RU,1605733649
158,Arlit,18.74,7.39,72.28,22,0,12.66,NE,1605733649
159,Hualmay,-11.1,-77.61,68.92,67,3,9.35,PE,1605733649
160,Torbay,47.67,-52.73,36.32,74,75,4.7,CA,1605733650
161,Mažeikiai,56.32,22.33,51.01,92,100,11.99,LT,1605733650
162,Necochea,-38.55,-58.74,66.99,56,0,8.01,AR,1605733650
163,Sarai Naurang,32.83,70.78,60.96,32,100,0.96,PK,1605733651
164,Yulara,-25.24,130.99,82.4,30,93,12.75,AU,1605733651
165,Havelock,34.88,-76.9,48.74,34,1,13.87,US,1605733651
166,Kundiawa,-6.02,144.97,64.67,76,93,1.21,PG,1605733652
167,Kiunga,-6.12,141.29,74.68,98,100,0.89,PG,1605733652
168,Maibong,25.3,93.17,59.16,79,1,0.94,IN,1605733652
169,Kuah,6.33,99.84,80.31,88,20,3.36,MY,1605733653
170,Nikolskoye,59.7,30.79,47.71,87,75,6.71,RU,1605733653
171,Kavaratti,10.57,72.64,82.38,78,88,16.62,IN,1605733653
172,La Asuncion,11.03,-63.86,81.19,77,69,14.97,VE,1605733494
173,Itarema,-2.92,-39.92,80.2,79,24,17.52,BR,1605733654
174,Batticaloa,7.71,81.69,79.18,80,78,2.75,LK,1605733654
175,Thinadhoo,0.53,72.93,81.75,77,68,10.89,MV,1605733654
176,Bac Lieu,9.29,105.72,78.1,87,3,8.63,VN,1605733655
177,Kenitra,34.26,-6.58,66.2,45,0,4.7,MA,1605733655
178,Broken Hill,-31.95,141.43,69.8,19,9,10.29,AU,1605733655
179,Tucuruí,-3.77,-49.67,86.31,62,93,0.98,BR,1605733656
180,Menongue,-14.66,17.69,65.59,90,100,2.1,AO,1605733656
181,Ketchikan,55.34,-131.65,36.3,100,90,17.22,US,1605733531
182,Chui,-33.7,-53.46,66.45,79,64,7.2,UY,1605733656
183,Oron,4.83,8.23,78.15,86,15,3.6,NG,1605733656
184,Mount Isa,-20.73,139.5,86.0,30,72,10.29,AU,1605733657
185,Jinxiang,27.43,120.61,67.96,92,1,5.3,CN,1605733520
186,Airai,-8.93,125.41,60.33,89,31,2.95,TL,1605733657
187,Preobrazheniye,42.9,133.91,41.23,89,100,22.86,RU,1605733657
188,Fairbanks,64.84,-147.72,-7.29,75,20,1.12,US,1605733658
189,Port Hardy,50.7,-127.42,42.8,93,90,3.36,CA,1605733658
190,Amilly,47.97,2.77,54.64,94,97,3.0,FR,1605733658
191,Amoy,24.48,118.08,71.6,88,75,2.24,CN,1605733658
192,Constantine,36.37,6.61,50.0,93,40,4.7,DZ,1605733659
193,Tete,-16.16,33.59,95.0,28,0,5.82,MZ,1605733659
194,Honiara,-9.43,159.95,77.0,88,20,2.24,SB,1605733659
195,Sémbé,1.65,14.58,77.04,65,73,2.17,CG,1605733659
196,Darhan,49.49,105.92,23.23,96,100,4.56,MN,1605733660
197,Frolovo,49.77,43.66,20.05,83,0,7.87,RU,1605733660
198,Laas,46.62,10.7,37.4,86,5,2.24,IT,1605733660
199,Mucurapo,10.67,-61.53,84.97,66,20,11.41,TT,1605733660
200,Syracuse,37.09,15.28,64.45,82,40,17.22,IT,1605733661
201,Ancud,-41.87,-73.82,69.08,43,0,6.93,CL,1605733661
202,Cayenne,4.93,-52.33,78.8,94,100,2.24,GF,1605733661
203,Pangai,-19.8,-174.35,80.6,74,75,9.17,TO,1605733661
204,Mossamedes,-15.2,12.15,68.94,72,87,9.22,AO,1605733661
205,Narsaq,60.92,-46.05,39.2,41,75,33.33,GL,1605733662
206,Dunedin,-45.87,170.5,53.01,62,4,14.0,NZ,1605733662
207,Golpāyegān,33.45,50.29,40.48,70,2,2.39,IR,1605733662
208,Lagos,6.58,3.75,82.4,88,20,2.24,NG,1605733601
209,Christchurch,-43.53,172.63,54.57,76,85,11.41,NZ,1605733415
210,Upernavik,72.79,-56.15,29.71,87,100,6.8,GL,1605733663
211,Kiryat Gat,31.61,34.76,65.86,54,0,5.01,IL,1605733663
212,Katherine,-14.47,132.27,82.4,69,79,8.05,AU,1605733663
213,Cherskiy,68.75,161.3,10.11,94,100,24.23,RU,1605733664
214,Vestmannaeyjar,63.44,-20.27,29.05,85,0,12.53,IS,1605733664
215,Manaure,11.78,-72.44,82.24,75,92,12.06,CO,1605733664
216,Lakes Entrance,-37.88,147.98,64.0,73,100,3.0,AU,1605733665
217,Grand-Santi,4.25,-54.38,76.12,95,100,2.59,GF,1605733665
218,Tegul'det,57.31,88.17,14.13,95,100,10.09,RU,1605733665
219,Oussouye,12.48,-16.55,77.0,88,0,5.37,SN,1605733665
220,Wajid,3.81,43.25,77.61,56,85,11.39,SO,1605733666
221,Nome,64.5,-165.41,27.54,92,90,23.04,US,1605733442
222,Cidreira,-30.18,-50.21,67.53,62,100,7.47,BR,1605733666
223,Kabinda,-6.13,24.48,67.41,94,99,1.81,CD,1605733666
224,Mehamn,71.04,27.85,41.0,75,0,13.87,NO,1605733667
225,Maku,39.29,44.45,38.44,75,93,1.54,IR,1605733667
226,Dabola,10.75,-11.12,74.59,37,95,2.33,GN,1605733667
227,Tuktoyaktuk,69.45,-133.04,14.0,85,90,6.93,CA,1605733667
228,Campbellton,48.01,-66.67,26.6,63,97,11.41,CA,1605733668
229,Kahului,20.89,-156.47,76.82,69,40,16.11,US,1605733429
230,Coquimbo,-29.95,-71.34,62.6,67,20,14.99,CL,1605733469
231,Bibiani,6.46,-2.32,73.33,93,100,1.88,GH,1605733668
232,Ayan,56.45,138.17,11.35,86,26,18.88,RU,1605733669
233,Chapais,49.78,-74.85,15.8,78,90,10.29,CA,1605733669
234,Yerbogachën,61.28,108.01,-6.65,91,71,6.24,RU,1605733372
235,Mahajanga,-15.72,46.32,80.6,83,20,5.82,MG,1605733669
236,Bathsheba,13.22,-59.52,84.2,74,20,12.75,BB,1605733670
237,Keti Bandar,24.14,67.45,72.41,63,9,6.78,PK,1605733670
238,Santa Cruz de Barahona,18.21,-71.1,78.8,94,75,9.17,DO,1605733670
239,Khatanga,71.97,102.5,20.93,97,100,24.18,RU,1605733670
240,Sergeevka,53.88,67.42,18.79,97,100,5.57,KZ,1605733671
241,Salalah,17.02,54.09,78.8,74,0,4.7,OM,1605733671
242,Dingle,11.0,122.67,76.17,91,81,7.05,PH,1605733671
243,Anadyr,64.75,177.48,35.28,93,75,31.32,RU,1605733671
244,Nerchinskiy Zavod,51.31,119.61,3.58,85,78,1.23,RU,1605733672
245,Tasiilaq,65.61,-37.64,21.2,57,20,6.93,GL,1605733672
246,Pirgos,35.12,25.72,63.0,63,51,15.46,GR,1605733672
247,Cabo San Lucas,22.89,-109.91,89.24,33,40,8.05,MX,1605733672
248,San Policarpo,12.18,125.51,80.62,84,39,7.85,PH,1605733673
249,Guayabetal,4.21,-73.82,73.92,73,90,1.54,CO,1605733673
250,Canchungo,12.07,-16.03,77.0,88,0,5.21,GW,1605733673
251,Aquiraz,-3.9,-38.39,82.4,74,0,8.05,BR,1605733673
252,Kilosa,-6.83,36.98,72.37,88,83,2.08,TZ,1605733673
253,Saint-Leu,-21.15,55.28,64.13,69,75,17.22,RE,1605733674
254,Saint George,37.1,-113.58,76.71,19,1,9.17,US,1605733581
255,Yertsevo,60.8,40.09,32.18,96,100,12.91,RU,1605733674
256,Boyolangu,-8.12,111.89,76.64,88,35,2.42,ID,1605733674
257,Baharly,38.44,57.43,28.83,73,45,14.34,TM,1605733675
258,Innisfail,-17.53,146.03,68.0,87,23,5.01,AU,1605733675
259,Mahon,39.89,4.27,53.6,87,0,3.36,ES,1605733595
260,Sinop Province,41.77,34.87,40.41,87,100,5.08,TR,1605733475
261,Itaperuna,-21.2,-41.89,73.06,89,71,9.22,BR,1605733675
262,Bumba,2.18,22.47,74.12,78,94,0.89,CD,1605733676
263,Ashland,40.82,-82.27,42.94,41,25,10.29,US,1605733676
264,Rongcheng,30.63,117.85,59.99,90,100,4.0,CN,1605733676
265,Kandrian,-6.22,149.55,79.57,84,85,5.97,PG,1605733677
266,Dalen,52.7,6.76,54.95,83,36,5.01,NL,1605733677
267,Vanimo,-2.67,141.3,79.21,84,99,5.5,PG,1605733677
268,Krasnorechenskiy,44.63,135.35,27.32,96,100,4.0,RU,1605733677
269,Jambi City,-1.6,103.62,74.03,97,96,1.39,ID,1605733678
270,Torbat-e Jām,35.24,60.62,29.55,87,0,3.38,IR,1605733678
271,Socorro,31.65,-106.3,76.84,22,5,5.82,US,1605733678
272,Portland,45.52,-122.68,49.03,87,90,13.87,US,1605733832
273,Alofi,-19.06,-169.92,84.2,79,75,5.82,NU,1605733679
274,Consuegra,39.46,-3.61,54.32,93,0,2.46,ES,1605733679
275,Bengkulu,-3.8,102.27,75.2,88,32,3.76,ID,1605733550
276,Zhongshu,24.52,103.77,48.87,88,0,5.26,CN,1605733679
277,Santa Maria,-29.68,-53.81,72.03,56,87,4.34,BR,1605733679
278,Buala,-8.14,159.59,82.4,74,52,7.29,SB,1605733680
279,Nieuw Amsterdam,5.88,-55.08,83.95,66,20,4.7,SR,1605733680
280,Aripuanã,-9.17,-60.63,75.78,97,100,2.73,BR,1605733680
281,Chiredzi,-21.05,31.67,79.3,32,8,5.03,ZW,1605733681
282,Kaitangata,-46.28,169.85,54.0,58,12,4.0,NZ,1605733681
283,Karratha,-20.74,116.85,74.07,46,29,3.18,AU,1605733682
284,Cap Malheureux,-19.98,57.61,69.01,86,2,4.0,MU,1605733682
285,Kamina,-8.74,24.99,64.83,98,82,2.84,CD,1605733682
286,Beringovskiy,63.05,179.32,36.14,82,22,22.84,RU,1605733683
287,Camocim,-2.9,-40.84,83.08,68,59,18.95,BR,1605733683
288,Moose Factory,51.26,-80.61,15.8,66,90,13.87,CA,1605733683
289,Shimoda,34.67,138.95,59.0,88,99,6.42,JP,1605733593
290,Fukuechō,32.69,128.84,73.27,83,76,24.94,JP,1605733684
291,Yarega,63.44,53.58,20.25,90,99,14.83,RU,1605733684
292,Honiton,50.8,-3.19,46.2,79,0,1.99,GB,1605733685
293,Tura,25.52,90.22,65.25,58,57,2.86,IN,1605733685
294,Gushikawa,26.35,127.87,75.13,88,40,6.93,JP,1605733685
295,Khandyga,62.67,135.6,-8.61,91,100,1.77,RU,1605733686
296,Aksu,41.12,80.26,30.15,86,100,2.04,CN,1605733686
297,Esim,4.87,-2.24,78.46,84,11,5.61,GH,1605733397
298,City of San Pedro,14.35,121.02,79.52,83,20,2.24,PH,1605733608
299,Korla,41.76,86.15,33.93,82,99,8.05,CN,1605733687
300,Paamiut,61.99,-49.67,36.34,81,100,6.33,GL,1605733430
301,Kautokeino,69.01,23.04,32.72,92,98,6.73,NO,1605733687
302,Saint-Paul,-21.01,55.27,62.82,77,90,18.34,RE,1605733687
303,Vuktyl,63.86,57.31,17.53,91,73,15.37,RU,1605733688
304,Jasper,37.2,-94.35,68.29,22,1,24.16,US,1605733688
305,Loa Janan,-0.58,117.09,74.5,97,100,1.83,ID,1605733688
306,Harper,4.38,-7.72,79.47,80,72,6.58,LR,1605733689
307,Emba,48.83,58.14,17.08,93,96,5.41,KZ,1605733689
308,Quatre Cocos,-20.21,57.76,70.23,83,75,11.41,MU,1605733689
309,Varhaug,58.61,5.65,49.66,99,100,18.99,NO,1605733689
310,Sarangani,5.4,125.46,83.93,73,100,12.35,PH,1605733690
311,Baker City,44.77,-117.83,49.96,50,90,18.34,US,1605733431
312,Vila Velha,-20.33,-40.29,77.86,83,75,12.75,BR,1605733440
313,Hanko,59.83,22.95,51.26,90,100,10.0,FI,1605733690
314,Kieta,-6.22,155.63,81.91,74,100,3.18,PG,1605733691
315,Louis Trichardt,-23.04,29.9,72.66,46,0,1.36,ZA,1605733691
316,Danielskuil,-28.19,23.54,68.34,24,0,12.17,ZA,1605733691
317,Hithadhoo,-0.6,73.08,81.55,78,99,7.7,MV,1605733692
318,Camaná,-16.62,-72.71,68.27,65,21,8.08,PE,1605733692
319,Bainbridge Island,47.63,-122.52,47.44,81,90,9.17,US,1605733608
320,Padang,-0.95,100.35,77.94,79,78,5.5,ID,1605733622
321,Makaha,21.47,-158.22,77.52,100,90,4.7,US,1605733693
322,Leningradskiy,69.38,178.42,23.56,94,100,5.37,RU,1605733694
323,Half Moon Bay,37.46,-122.43,61.25,100,90,11.41,US,1605733694
324,Ylivieska,64.08,24.55,39.11,96,100,3.0,FI,1605733695
325,Palmer,42.16,-72.33,28.9,76,20,14.99,US,1605733695
326,Chichi,7.27,8.93,81.86,33,49,1.48,NG,1605733695
327,Kochubey,44.39,46.58,42.31,66,100,23.35,RU,1605733696
328,Hamilton,39.18,-84.53,47.59,36,1,10.29,US,1605733696
329,Oxford,51.75,-1.26,45.5,81,0,14.99,GB,1605733675
330,Tutóia,-2.76,-42.27,84.2,74,20,13.67,BR,1605733697
331,Iberia,29.95,-91.75,69.55,45,1,8.05,US,1605733697
332,Altamont,42.21,-121.74,42.89,75,90,10.29,US,1605733698
333,Asău,46.43,26.4,41.0,97,38,2.84,RO,1605733698
334,Kununurra,-15.77,128.73,77.0,94,0,9.28,AU,1605733699
335,Lake Shasta,40.68,-122.37,59.11,50,94,1.01,US,1605733699
336,Eyl,7.98,49.82,77.23,71,39,16.17,SO,1605733699
337,Enshi,30.3,109.48,59.11,84,34,1.45,CN,1605733700
338,Alihe,50.57,123.72,13.03,88,94,2.35,CN,1605733701
339,Tomatlán,19.93,-105.25,91.87,39,0,7.11,MX,1605733701
340,Naze,28.37,129.48,75.2,78,20,9.17,JP,1605733499
341,Isiro,2.77,27.62,67.39,96,100,1.41,CD,1605733702
342,Werda,-25.27,23.28,79.59,23,56,8.28,BW,1605733702
343,Sinnamary,5.38,-52.95,77.97,88,100,9.15,GF,1605733703
344,Sitka,57.05,-135.33,33.8,50,75,3.36,US,1605733703
345,Pesnica pri Mariboru,46.61,15.68,37.47,93,0,2.24,SI,1605733705
346,Mtsensk,53.28,36.57,24.69,93,100,14.65,RU,1605733706
347,Boquira,-12.82,-42.73,75.85,74,100,1.66,BR,1605733707
348,Flinders,-34.58,150.86,66.18,87,17,3.0,AU,1605733708
349,Hong Kong,22.29,114.16,71.47,91,49,1.99,HK,1605733624
350,Samarai,-10.62,150.67,81.03,85,92,12.95,PG,1605733709
351,La Plata,-34.92,-57.95,74.89,47,98,1.99,AR,1605733631
352,Buinsk,54.95,48.28,14.0,72,0,6.71,RU,1605733710
353,kimparana,12.83,-4.92,79.77,23,4,7.96,ML,1605733710
354,Mareeba,-17.0,145.43,71.73,79,13,3.0,AU,1605733710
355,Darnah,32.77,22.64,65.21,69,85,4.12,LY,1605733711
356,Pisco,-13.7,-76.22,66.99,77,0,10.29,PE,1605733480
357,Tritenii de Jos,46.58,24.0,41.02,93,75,3.36,RO,1605733712
358,Norden,53.6,7.2,54.64,62,75,20.8,DE,1605733712
359,Senador José Porfírio,-2.59,-51.95,83.64,73,100,2.89,BR,1605733712
360,Caucaia,-3.74,-38.65,82.2,74,0,8.05,BR,1605733713
361,Arcoverde,-8.42,-37.05,81.88,47,99,10.92,BR,1605733713
362,Hambantota,6.12,81.12,79.0,80,95,2.42,LK,1605733714
363,Grajewo,53.65,22.46,47.01,89,100,12.62,PL,1605733621
364,Omsukchan,62.53,155.8,-15.0,85,100,7.72,RU,1605733714
365,Praia da Vitória,38.73,-27.07,58.3,59,20,8.93,PT,1605733715
366,Hobyo,5.35,48.53,79.83,77,50,14.41,SO,1605733717
367,Klaksvík,62.23,-6.59,32.0,83,100,20.8,FO,1605733704
368,Nurota,40.56,65.69,14.0,66,0,9.17,UZ,1605733718
369,Esperance,-33.87,121.9,59.0,93,14,5.82,AU,1605733719
370,Guerrero Negro,27.98,-114.06,76.93,47,0,13.2,MX,1605733719
371,São Félix do Xingu,-6.64,-51.99,77.45,93,100,2.53,BR,1605733720
372,Babanka,48.71,30.45,33.55,87,79,8.39,UA,1605733721
373,Sorong,-0.88,131.25,78.62,86,6,4.85,ID,1605733721
374,Nishihara,26.18,127.76,75.63,94,75,8.05,JP,1605733722
375,Fernley,39.61,-119.25,53.47,44,57,15.99,US,1605733722
376,Tambura,5.6,27.47,76.26,55,45,3.42,SS,1605733722
377,Sioux Lookout,50.1,-91.92,33.8,64,75,8.05,CA,1605733723
378,Banjar,-8.19,114.97,78.8,94,40,4.7,ID,1605733723
379,Provideniya,64.38,-173.3,37.4,93,90,24.61,RU,1605733723
380,Shumikha,55.23,63.3,13.89,94,0,7.9,RU,1605733695
381,Zhigansk,66.77,123.37,-2.99,92,100,15.26,RU,1605733724
382,Djibo,14.1,-1.63,79.56,21,0,9.42,BF,1605733724
383,Ankazoabo,-22.28,44.52,72.36,59,5,6.96,MG,1605733508
384,Tambopata,-12.73,-69.18,90.23,49,59,2.46,PE,1605733726
385,Gusau,12.16,6.66,71.76,25,26,7.09,NG,1605733726
386,College,64.86,-147.8,-7.31,68,20,2.53,US,1605733500
387,Rio Grande,-32.03,-52.1,72.14,53,20,6.93,BR,1605733465
388,Murashi,59.4,48.96,20.89,84,98,15.75,RU,1605733728
389,Lábrea,-7.26,-64.8,88.9,56,60,2.19,BR,1605733728
390,Comodoro Rivadavia,-45.87,-67.5,71.6,40,0,13.87,AR,1605733729
391,Severo-Kuril'sk,50.68,156.12,29.44,90,98,34.94,RU,1605733729
392,Miandrivazo,-19.52,45.47,78.85,71,4,1.54,MG,1605733730
393,Sierra Vista,31.55,-110.3,84.81,19,40,16.11,US,1605733556
394,Lichuan,30.3,108.85,50.59,96,48,2.17,CN,1605733730
395,Biak,-0.91,122.88,77.97,77,99,0.54,ID,1605733731
396,Grindavik,63.84,-22.43,23.0,73,0,8.05,IS,1605733731
397,Sakaraha,-22.9,44.53,68.9,78,0,2.57,MG,1605733732
398,Ponta Delgada,37.73,-25.67,57.2,62,20,8.05,PT,1605733732
399,Inverell,-29.78,151.12,66.0,71,0,1.01,AU,1605733596
400,San Fernando del Valle de Catamarca,-28.47,-65.79,69.84,56,35,3.0,AR,1605733733
401,Adamovka,51.52,59.94,16.9,94,37,2.86,RU,1605733734
402,Songea,-10.68,35.65,73.4,56,5,11.41,TZ,1605733735
403,Krasnoturansk,54.32,91.56,6.8,71,0,4.47,RU,1605733735
404,Skjervøy,70.03,20.97,37.4,86,75,25.28,NO,1605733735
405,Ankpa,7.37,7.63,76.66,37,0,2.55,NG,1605733736
406,Honningsvåg,70.98,25.97,37.4,75,75,27.51,NO,1605733737
407,Olden,61.84,6.81,33.82,93,90,9.17,NO,1605733738
408,Svetlaya,46.54,138.33,29.28,78,100,8.32,RU,1605733739
409,Irecê,-11.3,-41.86,76.8,69,99,9.35,BR,1605733739
410,Nemuro,43.32,145.57,41.88,88,100,15.19,JP,1605733740
411,Tynda,55.17,124.72,-10.07,87,0,1.23,RU,1605733646
412,Tautira,-17.73,-149.15,86.0,66,40,5.82,PF,1605733740
413,Boljevac,43.83,21.95,48.33,7,95,4.99,RS,1605733740
414,Puerto Ayacucho,5.66,-67.62,85.26,76,24,7.07,VE,1605733741
415,Ulladulla,-35.35,150.47,58.98,100,0,7.49,AU,1605733741
416,Turriff,57.54,-2.46,44.47,79,78,15.01,GB,1605733741
417,Zvishavane,-20.33,30.07,75.02,37,11,0.11,ZW,1605733742
418,Bethel,41.37,-73.41,29.98,49,0,8.66,US,1605733742
419,Byron Bay,-28.65,153.62,64.22,88,90,4.7,AU,1605733504
420,Bereket,39.24,55.52,28.17,70,0,24.05,TM,1605733743
421,Ca Mau,9.18,105.15,74.98,94,42,4.21,VN,1605733706
422,Nuuk,64.18,-51.72,39.09,55,75,14.99,GL,1605733743
423,Gillette,44.29,-105.5,62.01,27,100,7.0,US,1605733743
424,Ambilobe,-13.2,49.05,73.96,78,89,2.08,MG,1605733744
425,Katsina,12.99,7.6,73.11,22,37,8.43,NG,1605733744
426,Shurugwi,-19.67,30.01,69.64,39,40,1.86,ZW,1605733744
427,Lompoc,34.64,-120.46,65.5,68,90,5.82,US,1605733745
428,Talnakh,69.49,88.4,21.2,92,90,24.61,RU,1605733622
429,Anaconda,46.13,-112.94,40.51,86,90,8.05,US,1605733745
430,Makkah al Mukarramah,21.43,39.83,76.06,67,0,3.09,SA,1605733573
431,Khovd,48.01,91.64,13.93,72,100,2.82,MN,1605733746
432,Olinda,-8.01,-34.86,82.4,74,40,9.17,BR,1605733746
433,Sabang,5.89,95.32,81.57,77,100,8.12,ID,1605733746
434,Antofagasta,-23.65,-70.4,62.6,67,20,14.99,CL,1605733746
435,Lora del Río,37.66,-5.53,63.54,77,0,1.12,ES,1605733747
436,Havre-St-Pierre,50.23,-63.6,26.6,53,40,10.29,CA,1605733747
437,Sobolevo,54.43,31.9,33.15,94,100,16.49,RU,1605733747
438,Fortuna,40.6,-124.16,57.51,62,20,6.93,US,1605733673
439,Husavik,66.04,-17.34,12.2,78,0,3.36,IS,1605733748
440,Bandar-e Lengeh,26.56,54.88,75.15,49,0,13.02,IR,1605733748
441,Marawi,8.0,124.29,75.0,92,100,5.99,PH,1605733749
442,Ambulu,-8.35,113.61,76.73,87,9,2.71,ID,1605733749
443,Sangar,63.92,127.47,-10.39,90,100,6.2,RU,1605733749
444,Satwās,22.53,76.68,72.61,65,100,1.03,IN,1605733750
445,Adrar,20.5,-10.07,74.84,20,0,11.36,MR,1605733750
446,Isangel,-19.55,169.27,76.35,65,3,11.81,VU,1605733750
447,Kathmandu,27.72,85.32,46.4,93,20,3.36,NP,1605733689
448,Kytmanovo,53.46,85.45,10.04,93,100,7.7,RU,1605733751
449,Bata,1.86,9.77,79.23,83,100,6.38,GQ,1605733751
450,Egvekinot,66.32,-179.17,32.36,100,100,13.53,RU,1605733751
451,Vostok,46.49,135.88,18.12,76,100,3.15,RU,1605733752
452,Mayo,38.89,-76.51,42.26,41,40,13.87,US,1605733612
453,Araouane,18.9,-3.53,78.6,18,82,9.06,ML,1605733752
454,Balboa,2.04,-77.22,66.88,92,57,2.75,CO,1605733753
455,Ponta do Sol,32.67,-17.1,61.92,72,75,19.46,PT,1605733753
456,Mugur-Aksy,50.35,90.5,-11.0,69,0,6.04,RU,1605733753
457,Coyhaique,-45.58,-72.07,78.8,29,0,10.29,CL,1605733606
458,Atar,20.52,-13.05,77.85,18,0,9.69,MR,1605733754
459,Batouri,4.43,14.37,72.19,62,92,1.43,CM,1605733754
460,Kipini,-2.53,40.53,80.6,83,20,12.71,KE,1605733755
461,Meridian,43.61,-116.39,55.99,71,20,14.99,US,1605733592
462,Trairi,-3.28,-39.27,80.04,76,64,12.75,BR,1605733755
463,Lodja,-3.48,23.43,69.24,91,100,1.9,CD,1605733755
464,Laguna,38.42,-121.42,63.48,82,90,12.75,US,1605733588
465,Rawson,-43.3,-65.1,64.81,49,0,17.52,AR,1605733756
466,Kisi,9.08,3.85,75.09,34,0,2.46,NG,1605733756
467,Namatanai,-3.67,152.43,81.18,79,100,2.24,PG,1605733757
468,Verkhnevilyuysk,63.45,120.32,-1.07,91,100,8.01,RU,1605733757
469,Río Gallegos,-51.62,-69.22,75.2,36,40,28.86,AR,1605733758
470,High Level,58.52,-117.14,8.6,84,90,12.75,CA,1605733759
471,Nanlong,31.35,106.06,56.86,56,79,1.39,CN,1605733759
472,Morondava,-20.28,44.28,77.23,71,26,4.83,MG,1605733759
473,Sarakhs,36.54,61.16,28.4,58,67,2.24,IR,1605733759
474,Merauke,-8.47,140.33,80.22,84,98,11.01,ID,1605733760
475,Monsenhor Gil,-5.56,-42.61,93.2,46,40,9.17,BR,1605733651
476,Qom,34.64,50.88,47.7,58,0,2.57,IR,1605733761
477,Yumen,40.28,97.2,20.66,89,0,9.06,CN,1605733762
478,Freeport,40.66,-73.58,34.5,37,1,14.99,US,1605733762
479,Aykhal,66.0,111.5,10.4,85,90,4.47,RU,1605733763
480,Iraquara,-12.25,-41.62,70.66,89,100,4.25,BR,1605733763
481,Rosetta,31.4,30.42,69.8,68,40,11.41,EG,1605733763
482,Ajdabiya,30.76,20.23,67.64,53,92,10.22,LY,1605733763
483,Bissau,11.86,-15.6,80.76,71,68,8.39,GW,1605733764
484,Sedalia,38.7,-93.23,66.07,25,1,20.8,US,1605733764
485,Kasongo-Lunda,-6.47,16.82,71.67,91,100,0.72,CD,1605733765
486,Vice,-5.42,-80.78,77.5,49,46,18.01,PE,1605733765
487,Maniitsoq,65.42,-52.9,35.08,84,91,18.01,GL,1605733766
488,Oneida,43.2,-75.47,25.79,63,90,5.82,US,1605733766
489,Santa Fe,-31.63,-60.7,68.58,76,97,12.15,AR,1605733766
490,Lakhdenpokh'ya,61.52,30.2,46.99,95,100,13.06,RU,1605733767
491,Birjand,32.87,59.22,33.8,59,0,6.93,IR,1605733767
492,Tuatapere,-46.13,167.68,55.0,67,48,4.0,NZ,1605733767
493,Calama,-22.47,-68.93,73.4,6,0,28.86,CL,1605733576
494,São Borja,-28.66,-56.0,76.41,49,53,10.27,BR,1605733768
495,Keminmaa,65.86,24.82,41.0,80,0,10.29,FI,1605733768
496,Brae,60.4,-1.35,41.0,86,100,42.5,GB,1605733768
497,Mikkeli,61.69,27.27,47.32,100,90,8.05,FI,1605733769
498,Leicester,52.64,-1.13,45.52,78,0,11.01,GB,1605733769
499,Kaduqli,11.02,29.72,78.12,31,0,6.89,SD,1605733770
500,Pandan,14.05,124.17,79.74,86,61,9.78,PH,1605733770
501,Santo Antônio do Içá,-3.1,-67.94,83.03,90,67,2.84,BR,1605733770
502,Killybegs,54.63,-8.45,48.06,81,75,19.46,IE,1605733770
503,Halifax,44.65,-63.57,31.6,87,40,13.87,CA,1605733516
504,Izazi,-7.2,35.73,66.2,93,40,4.65,TZ,1605733771
505,Bariloche,-41.15,-71.31,80.6,8,20,10.29,AR,1605733645
506,Partūr,19.6,76.22,75.51,49,100,9.48,IN,1605733772
507,Evensk,61.95,159.23,-0.98,88,100,12.5,RU,1605733773
508,Bitkine,11.98,18.21,77.5,24,0,6.53,TD,1605733773
509,Iskateley,67.68,53.15,25.29,97,100,22.57,RU,1605733773
510,Talara,-4.58,-81.27,67.77,76,98,14.12,PE,1605733696
511,Lubumbashi,-11.66,27.48,65.3,91,100,4.14,CD,1605733775
512,Birobidzhan,48.8,132.95,17.67,77,100,4.88,RU,1605733775
513,Talaya,61.38,152.75,-14.62,86,98,3.56,RU,1605733775
514,Novouzensk,50.46,48.14,17.76,79,0,5.59,RU,1605733776
515,Puerto del Rosario,28.5,-13.86,77.0,31,0,12.75,ES,1605733776
516,Dongsheng,39.82,109.98,22.48,93,5,18.19,CN,1605733777
517,Inhambane,-23.86,35.38,73.89,87,0,8.93,MZ,1605733778
518,Aswān,24.09,32.91,67.21,29,0,8.79,EG,1605733778
519,Vila,42.03,-8.16,55.0,89,80,0.78,PT,1605733778
520,Noumea,-22.28,166.46,77.58,60,0,5.82,NC,1605733723
521,Kalabo,-14.97,22.68,71.22,75,97,1.45,ZM,1605733779
522,Sambava,-14.27,50.17,71.35,79,0,10.6,MG,1605733780
523,Linxia Chengguanzhen,35.6,103.21,33.78,84,62,2.24,CN,1605733780
524,Los Llanos de Aridane,28.66,-17.92,69.4,83,40,14.99,ES,1605733780
525,Kailua,21.4,-157.74,77.09,83,90,9.17,US,1605733781
526,São João da Barra,-21.64,-41.05,78.8,74,75,13.87,BR,1605733781
527,Woodward,36.43,-99.39,72.25,24,1,28.86,US,1605733783
528,Churapcha,62.0,132.43,-5.21,91,100,3.85,RU,1605733783
529,Hofn,64.25,-15.21,27.01,76,0,7.0,IS,1605733784
530,Timrå,62.49,17.33,48.29,100,100,6.93,SE,1605733785
531,Zyryanka,65.75,150.85,-7.1,87,100,10.71,RU,1605733785
532,Prestea,5.43,-2.14,74.43,93,85,3.38,GH,1605733785
533,Elizabeth City,36.29,-76.25,48.11,37,1,10.29,US,1605733754
534,Rome,43.21,-75.46,25.77,63,90,5.82,US,1605733565
535,Abéché,13.83,20.83,77.47,23,0,10.45,TD,1605733786
536,Mizque,-17.94,-65.34,77.5,34,18,13.71,BO,1605733786
537,Copiapó,-27.37,-70.33,66.2,55,20,14.99,CL,1605733786
538,Riyadh,24.69,46.72,66.2,52,0,3.36,SA,1605733584
539,Coolum Beach,-26.53,153.1,71.37,82,100,1.99,AU,1605733751
540,Manzini,-26.25,31.5,72.66,69,1,5.97,SZ,1605733787
541,Turukhansk,65.82,87.98,11.88,96,100,15.9,RU,1605733788
542,Duncan,34.5,-97.96,72.9,27,1,21.92,US,1605733788
543,Bǝrdǝ,40.37,47.13,40.44,74,100,14.25,AZ,1605733788
544,Sakakah,29.97,40.21,59.0,51,0,9.17,SA,1605733789
545,Ashgabat,37.95,58.38,30.2,42,90,9.17,TM,1605733789
546,Bilma,18.69,12.92,65.07,28,0,4.41,NE,1605733789
547,Chimoré,-16.98,-65.13,70.23,95,100,4.45,BO,1605733789
548,Saint-Augustin,51.23,-58.65,28.58,82,45,9.51,CA,1605733790
549,Irtyshskiy,58.33,68.13,11.41,94,6,5.57,RU,1605733790
550,Zambezi,-13.54,23.1,68.5,87,97,3.15,ZM,1605733790
551,Tateyama,34.98,139.87,60.8,82,75,5.82,JP,1605733791
552,Kanjiža,46.07,20.05,43.86,88,0,5.03,RS,1605733791
553,Nova Olinda do Norte,-3.89,-59.09,81.79,77,100,1.99,BR,1605733792
554,Bandarbeyla,9.49,50.81,76.15,74,36,19.48,SO,1605733792
